{
  "type": "FeatureCollection",
  "features": [
    {
      "type": "Feature",
      "geometry": {
        "type": "Point",
        "coordinates": [
          127.091735641774,
          37.5894446318813
        ]
      },
      "properties": {
        "store_id": "store-00001",
        "name": "노다지로또",
        "address": "서울 중랑구 겸재로 217",
        "score": 5.374636,
        "win1": 1,
        "win2": 1,
        "last_win_date": "2026-04-18"
      }
    },
    {
      "type": "Feature",
      "geometry": {
        "type": "Point",
        "coordinates": [
          126.97633371006,
          37.5584466553632
        ]
      },
      "properties": {
        "store_id": "store-00002",
        "name": "가판14호",
        "address": "서울 중구 퇴계로 37",
        "score": 41.426929,
        "win1": 8,
        "win2": 8,
        "last_win_date": "2026-05-30"
      }
    },
    {
      "type": "Feature",
      "geometry": {
        "type": "Point",
        "coordinates": [
          127.002841251476,
          37.5712522392538
        ]
      },
      "properties": {
        "store_id": "store-00003",
        "name": "제이복권방",
        "address": "서울 종로구 종로 225-1 평창빌딩 1층 103호",
        "score": 19.812555,
        "win1": 4,
        "win2": 4,
        "last_win_date": "2026-04-18"
      }
    },
    {
      "type": "Feature",
      "geometry": {
        "type": "Point",
        "coordinates": [
          126.916676953026,
          37.5124972547658
        ]
      },
      "properties": {
        "store_id": "store-00004",
        "name": "우선식품",
        "address": "서울 영등포구 도신로 231-2",
        "score": 5.374636,
        "win1": 1,
        "win2": 1,
        "last_win_date": "2026-04-18"
      }
    },
    {
      "type": "Feature",
      "geometry": {
        "type": "Point",
        "coordinates": [
          126.92687397999,
          37.5237811435126
        ]
      },
      "properties": {
        "store_id": "store-00005",
        "name": "교통카드판매대",
        "address": "서울 영등포구 여의나루로 71",
        "score": 5.374636,
        "win1": 1,
        "win2": 1,
        "last_win_date": "2026-04-18"
      }
    },
    {
      "type": "Feature",
      "geometry": {
        "type": "Point",
        "coordinates": [
          127.066546646088,
          37.5608326916056
        ]
      },
      "properties": {
        "store_id": "store-00006",
        "name": "로그인편의점",
        "address": "서울 성동구 천호대로 430 103호 로그인편의점",
        "score": 5.374636,
        "win1": 1,
        "win2": 1,
        "last_win_date": "2026-04-18"
      }
    },
    {
      "type": "Feature",
      "geometry": {
        "type": "Point",
        "coordinates": [
          127.015435697895,
          37.4817811288984
        ]
      },
      "properties": {
        "store_id": "store-00007",
        "name": "인터넷 복권판매사이트",
        "address": "서울 서초구 남부순환로 2423",
        "score": 456.980841,
        "win1": 89,
        "win2": 89,
        "last_win_date": "2026-06-13"
      }
    },
    {
      "type": "Feature",
      "geometry": {
        "type": "Point",
        "coordinates": [
          126.914162274353,
          37.5693936689909
        ]
      },
      "properties": {
        "store_id": "store-00008",
        "name": "축복 복권",
        "address": "서울 서대문구 수색로 39 1층",
        "score": 5.374636,
        "win1": 1,
        "win2": 1,
        "last_win_date": "2026-04-18"
      }
    },
    {
      "type": "Feature",
      "geometry": {
        "type": "Point",
        "coordinates": [
          126.904781124598,
          37.5616066470656
        ]
      },
      "properties": {
        "store_id": "store-00009",
        "name": "복권백화점",
        "address": "서울 마포구 월드컵로 157",
        "score": 5.374636,
        "win1": 1,
        "win2": 1,
        "last_win_date": "2026-04-18"
      }
    },
    {
      "type": "Feature",
      "geometry": {
        "type": "Point",
        "coordinates": [
          127.058001700205,
          37.6616423693886
        ]
      },
      "properties": {
        "store_id": "store-00010",
        "name": "스파",
        "address": "서울 노원구 동일로 1493 주공10단지종합상가111",
        "score": 24.965228,
        "win1": 5,
        "win2": 5,
        "last_win_date": "2026-04-25"
      }
    },
    {
      "type": "Feature",
      "geometry": {
        "type": "Point",
        "coordinates": [
          127.072624190465,
          37.6251907317102
        ]
      },
      "properties": {
        "store_id": "store-00011",
        "name": "미래복권",
        "address": "서울 노원구 동일로191길 7 1층",
        "score": 5.374636,
        "win1": 1,
        "win2": 1,
        "last_win_date": "2026-04-18"
      }
    },
    {
      "type": "Feature",
      "geometry": {
        "type": "Point",
        "coordinates": [
          127.09017942587,
          37.5516578285975
        ]
      },
      "properties": {
        "store_id": "store-00012",
        "name": "아차산역가로판매점",
        "address": "서울 광진구 천호대로 665",
        "score": 5.374636,
        "win1": 1,
        "win2": 1,
        "last_win_date": "2026-04-18"
      }
    },
    {
      "type": "Feature",
      "geometry": {
        "type": "Point",
        "coordinates": [
          126.87285045317,
          37.5501089578592
        ]
      },
      "properties": {
        "store_id": "store-00013",
        "name": "또와식품",
        "address": "서울 강서구 양천로 694",
        "score": 5.374636,
        "win1": 1,
        "win2": 1,
        "last_win_date": "2026-04-18"
      }
    },
    {
      "type": "Feature",
      "geometry": {
        "type": "Point",
        "coordinates": [
          127.016238768666,
          37.6199624506687
        ]
      },
      "properties": {
        "store_id": "store-00014",
        "name": "행운복권",
        "address": "서울 강북구 솔샘로 212 1층",
        "score": 15.843004,
        "win1": 3,
        "win2": 3,
        "last_win_date": "2026-04-18"
      }
    },
    {
      "type": "Feature",
      "geometry": {
        "type": "Point",
        "coordinates": [
          127.024201569834,
          37.6320601680089
        ]
      },
      "properties": {
        "store_id": "store-00015",
        "name": "로또은행복권방",
        "address": "서울 강북구 도봉로 264 1층 101호",
        "score": 5.374636,
        "win1": 1,
        "win2": 1,
        "last_win_date": "2026-04-18"
      }
    },
    {
      "type": "Feature",
      "geometry": {
        "type": "Point",
        "coordinates": [
          127.14435219968,
          37.547798393328
        ]
      },
      "properties": {
        "store_id": "store-00016",
        "name": "대박복권방",
        "address": "서울 강동구 양재대로134길 11 1층 4호",
        "score": 5.374636,
        "win1": 1,
        "win2": 1,
        "last_win_date": "2026-04-18"
      }
    },
    {
      "type": "Feature",
      "geometry": {
        "type": "Point",
        "coordinates": [
          129.063051640925,
          35.1400559949767
        ]
      },
      "properties": {
        "store_id": "store-00017",
        "name": "부일카서비스",
        "address": "부산 동구 자성로133번길 35",
        "score": 54.171121,
        "win1": 11,
        "win2": 11,
        "last_win_date": "2026-05-09"
      }
    },
    {
      "type": "Feature",
      "geometry": {
        "type": "Point",
        "coordinates": [
          129.059927746208,
          35.1391633871025
        ]
      },
      "properties": {
        "store_id": "store-00018",
        "name": "돈벼락맞는곳",
        "address": "부산 동구 조방로49번길 18-1",
        "score": 21.361671,
        "win1": 4,
        "win2": 4,
        "last_win_date": "2026-06-13"
      }
    },
    {
      "type": "Feature",
      "geometry": {
        "type": "Point",
        "coordinates": [
          129.216331930168,
          35.2452378493168
        ]
      },
      "properties": {
        "store_id": "store-00019",
        "name": "돈벼락맞는곳",
        "address": "부산 기장군 읍내로 109",
        "score": 11.351907,
        "win1": 2,
        "win2": 2,
        "last_win_date": "2026-06-13"
      }
    },
    {
      "type": "Feature",
      "geometry": {
        "type": "Point",
        "coordinates": [
          129.092429734727,
          35.2716341271697
        ]
      },
      "properties": {
        "store_id": "store-00020",
        "name": "씨스페이스 범어사역점",
        "address": "부산 금정구 중앙대로 2097",
        "score": 10.893981,
        "win1": 2,
        "win2": 2,
        "last_win_date": "2026-05-02"
      }
    },
    {
      "type": "Feature",
      "geometry": {
        "type": "Point",
        "coordinates": [
          128.543664869623,
          35.8784347829715
        ]
      },
      "properties": {
        "store_id": "store-00021",
        "name": "월드복권",
        "address": "대구 서구 북비산로 98",
        "score": 5.374636,
        "win1": 1,
        "win2": 1,
        "last_win_date": "2026-04-18"
      }
    },
    {
      "type": "Feature",
      "geometry": {
        "type": "Point",
        "coordinates": [
          128.496966192201,
          35.8786604420863
        ]
      },
      "properties": {
        "store_id": "store-00022",
        "name": "서재강변로또",
        "address": "대구 달성군 서재로 172",
        "score": 15.791369,
        "win1": 3,
        "win2": 3,
        "last_win_date": "2026-05-02"
      }
    },
    {
      "type": "Feature",
      "geometry": {
        "type": "Point",
        "coordinates": [
          126.631907180156,
          37.4646220584894
        ]
      },
      "properties": {
        "store_id": "store-00023",
        "name": "드림복권방",
        "address": "인천 중구 인중로 97-1 버스정류장 앞 GS편의점 옆",
        "score": 10.539292,
        "win1": 2,
        "win2": 2,
        "last_win_date": "2026-04-18"
      }
    },
    {
      "type": "Feature",
      "geometry": {
        "type": "Point",
        "coordinates": [
          126.650165044813,
          37.3949423122559
        ]
      },
      "properties": {
        "store_id": "store-00024",
        "name": "황금복권방",
        "address": "인천 연수구 컨벤시아대로 81 송도동 드림시티 113-2호",
        "score": 5.374636,
        "win1": 1,
        "win2": 1,
        "last_win_date": "2026-04-18"
      }
    },
    {
      "type": "Feature",
      "geometry": {
        "type": "Point",
        "coordinates": [
          126.670737253422,
          37.4976472852329
        ]
      },
      "properties": {
        "store_id": "store-00025",
        "name": "희망복권",
        "address": "인천 서구 가정로151번길 11 삼성홈플러스가좌점1층",
        "score": 5.374636,
        "win1": 1,
        "win2": 1,
        "last_win_date": "2026-04-18"
      }
    },
    {
      "type": "Feature",
      "geometry": {
        "type": "Point",
        "coordinates": [
          126.67131251234,
          37.5954800218165
        ]
      },
      "properties": {
        "store_id": "store-00026",
        "name": "연이네 복권방",
        "address": "인천 서구 완정로 26 수옥빌딩 1층",
        "score": 5.374636,
        "win1": 1,
        "win2": 1,
        "last_win_date": "2026-04-18"
      }
    },
    {
      "type": "Feature",
      "geometry": {
        "type": "Point",
        "coordinates": [
          126.656126476124,
          37.5305354871476
        ]
      },
      "properties": {
        "store_id": "store-00027",
        "name": "하영",
        "address": "인천 서구 청라에메랄드로 65 아파트 상가 102호",
        "score": 11.273029,
        "win1": 2,
        "win2": 2,
        "last_win_date": "2026-06-06"
      }
    },
    {
      "type": "Feature",
      "geometry": {
        "type": "Point",
        "coordinates": [
          126.679599605279,
          37.4690910552982
        ]
      },
      "properties": {
        "store_id": "store-00028",
        "name": "행운복권",
        "address": "인천 미추홀구 길파로35번길 2 종합전기전자 맞은편",
        "score": 5.374636,
        "win1": 1,
        "win2": 1,
        "last_win_date": "2026-04-18"
      }
    },
    {
      "type": "Feature",
      "geometry": {
        "type": "Point",
        "coordinates": [
          126.723083704409,
          37.4016848854965
        ]
      },
      "properties": {
        "store_id": "store-00029",
        "name": "우리복권",
        "address": "인천 남동구 논고개로123번길 17 109호",
        "score": 10.893981,
        "win1": 2,
        "win2": 2,
        "last_win_date": "2026-05-02"
      }
    },
    {
      "type": "Feature",
      "geometry": {
        "type": "Point",
        "coordinates": [
          126.930712376042,
          35.1180936987256
        ]
      },
      "properties": {
        "store_id": "store-00030",
        "name": "인생한방",
        "address": "광주 동구 화산로 328-6 상가 106호 GS25 용산호반점",
        "score": 5.374636,
        "win1": 1,
        "win2": 1,
        "last_win_date": "2026-04-18"
      }
    },
    {
      "type": "Feature",
      "geometry": {
        "type": "Point",
        "coordinates": [
          129.326109380951,
          35.539259956709
        ]
      },
      "properties": {
        "store_id": "store-00031",
        "name": "또로또",
        "address": "울산 남구 신정로68번길 47 1층 신화부동산",
        "score": 32.971361,
        "win1": 6,
        "win2": 6,
        "last_win_date": "2026-05-02"
      }
    },
    {
      "type": "Feature",
      "geometry": {
        "type": "Point",
        "coordinates": [
          126.948803638712,
          37.2196836523003
        ]
      },
      "properties": {
        "store_id": "store-00032",
        "name": "봉담복자리복권과편의점",
        "address": "경기 화성시 삼천병마로 1276",
        "score": 10.471138,
        "win1": 2,
        "win2": 2,
        "last_win_date": "2026-04-18"
      }
    },
    {
      "type": "Feature",
      "geometry": {
        "type": "Point",
        "coordinates": [
          127.107286821254,
          37.166083776492
        ]
      },
      "properties": {
        "store_id": "store-00033",
        "name": "동탄호수복권",
        "address": "경기 화성시 동탄순환대로 127-5 1층 101호",
        "score": 5.374636,
        "win1": 1,
        "win2": 1,
        "last_win_date": "2026-04-18"
      }
    },
    {
      "type": "Feature",
      "geometry": {
        "type": "Point",
        "coordinates": [
          127.05260611154,
          37.2046297332344
        ]
      },
      "properties": {
        "store_id": "store-00034",
        "name": "어쩌면 오늘",
        "address": "경기 화성시 여울로2길 32 1층",
        "score": 5.374636,
        "win1": 1,
        "win2": 1,
        "last_win_date": "2026-04-18"
      }
    },
    {
      "type": "Feature",
      "geometry": {
        "type": "Point",
        "coordinates": [
          127.184475919003,
          37.5506851829474
        ]
      },
      "properties": {
        "store_id": "store-00035",
        "name": "행운복권",
        "address": "경기 하남시 조정대로 45 R110호",
        "score": 5.374636,
        "win1": 1,
        "win2": 1,
        "last_win_date": "2026-04-18"
      }
    },
    {
      "type": "Feature",
      "geometry": {
        "type": "Point",
        "coordinates": [
          126.927991546444,
          36.9884816384465
        ]
      },
      "properties": {
        "store_id": "store-00036",
        "name": "잘찍어로또방",
        "address": "경기 평택시 안현로서5길 64",
        "score": 5.374636,
        "win1": 1,
        "win2": 1,
        "last_win_date": "2026-04-18"
      }
    },
    {
      "type": "Feature",
      "geometry": {
        "type": "Point",
        "coordinates": [
          126.838976132371,
          37.8289732769028
        ]
      },
      "properties": {
        "store_id": "store-00037",
        "name": "로또대박",
        "address": "경기 파주시 술이홀로 470",
        "score": 5.374636,
        "win1": 1,
        "win2": 1,
        "last_win_date": "2026-04-18"
      }
    },
    {
      "type": "Feature",
      "geometry": {
        "type": "Point",
        "coordinates": [
          126.759892016322,
          37.7131570773604
        ]
      },
      "properties": {
        "store_id": "store-00038",
        "name": "이마트24삼융시네마점",
        "address": "경기 파주시 경의로 1074",
        "score": 5.374636,
        "win1": 1,
        "win2": 1,
        "last_win_date": "2026-04-18"
      }
    },
    {
      "type": "Feature",
      "geometry": {
        "type": "Point",
        "coordinates": [
          126.774731570076,
          37.762699507518
        ]
      },
      "properties": {
        "store_id": "store-00039",
        "name": "자매점",
        "address": "경기 파주시 문화로 95 1층",
        "score": 5.374636,
        "win1": 1,
        "win2": 1,
        "last_win_date": "2026-04-18"
      }
    },
    {
      "type": "Feature",
      "geometry": {
        "type": "Point",
        "coordinates": [
          127.437983885227,
          37.2994173476175
        ]
      },
      "properties": {
        "store_id": "store-00040",
        "name": "황금복권마트",
        "address": "경기 이천시 증신로325번길 5 1층",
        "score": 26.135871,
        "win1": 5,
        "win2": 5,
        "last_win_date": "2026-05-16"
      }
    },
    {
      "type": "Feature",
      "geometry": {
        "type": "Point",
        "coordinates": [
          127.207384071849,
          37.2357362287919
        ]
      },
      "properties": {
        "store_id": "store-00041",
        "name": "칠성복권방",
        "address": "경기 용인시 처인구 금령로 99-1 1층 101호",
        "score": 53.746364,
        "win1": 10,
        "win2": 10,
        "last_win_date": "2026-04-18"
      }
    },
    {
      "type": "Feature",
      "geometry": {
        "type": "Point",
        "coordinates": [
          127.646419310321,
          37.2578957097114
        ]
      },
      "properties": {
        "store_id": "store-00042",
        "name": "하늘로또",
        "address": "경기 여주시 세종로475번길 2 1층",
        "score": 5.374636,
        "win1": 1,
        "win2": 1,
        "last_win_date": "2026-04-18"
      }
    },
    {
      "type": "Feature",
      "geometry": {
        "type": "Point",
        "coordinates": [
          127.499198666742,
          37.4922020600205
        ]
      },
      "properties": {
        "store_id": "store-00043",
        "name": "신세계로또",
        "address": "경기 양평군 공흥로 16 1층",
        "score": 5.374636,
        "win1": 1,
        "win2": 1,
        "last_win_date": "2026-04-18"
      }
    },
    {
      "type": "Feature",
      "geometry": {
        "type": "Point",
        "coordinates": [
          126.813316405672,
          37.3011637522808
        ]
      },
      "properties": {
        "store_id": "store-00044",
        "name": "대박나라",
        "address": "경기 안산시 단원구 원포공원1로 30 1층 122호",
        "score": 5.374636,
        "win1": 1,
        "win2": 1,
        "last_win_date": "2026-04-18"
      }
    },
    {
      "type": "Feature",
      "geometry": {
        "type": "Point",
        "coordinates": [
          126.677050937114,
          37.3268884418207
        ]
      },
      "properties": {
        "store_id": "store-00045",
        "name": "로또명당카페",
        "address": "경기 시흥시 거북섬2길 21 1층 103호",
        "score": 5.374636,
        "win1": 1,
        "win2": 1,
        "last_win_date": "2026-04-18"
      }
    },
    {
      "type": "Feature",
      "geometry": {
        "type": "Point",
        "coordinates": [
          126.800665867543,
          37.436431894322
        ]
      },
      "properties": {
        "store_id": "store-00046",
        "name": "도원로또방",
        "address": "경기 시흥시 은계중앙로 65 상가동 제1층 제1호",
        "score": 5.374636,
        "win1": 1,
        "win2": 1,
        "last_win_date": "2026-04-18"
      }
    },
    {
      "type": "Feature",
      "geometry": {
        "type": "Point",
        "coordinates": [
          126.741719861356,
          37.3921296735285
        ]
      },
      "properties": {
        "store_id": "store-00047",
        "name": "희망복권",
        "address": "경기 시흥시 월곶중앙로14번길 68 1동 104호",
        "score": 5.374636,
        "win1": 1,
        "win2": 1,
        "last_win_date": "2026-04-18"
      }
    },
    {
      "type": "Feature",
      "geometry": {
        "type": "Point",
        "coordinates": [
          127.057346969072,
          37.2881943862144
        ]
      },
      "properties": {
        "store_id": "store-00048",
        "name": "럭키복권방",
        "address": "경기 수원시 영통구 센트럴타운로 15 아이플렉스104호",
        "score": 5.374636,
        "win1": 1,
        "win2": 1,
        "last_win_date": "2026-04-18"
      }
    },
    {
      "type": "Feature",
      "geometry": {
        "type": "Point",
        "coordinates": [
          126.952746658319,
          37.2750545733669
        ]
      },
      "properties": {
        "store_id": "store-00049",
        "name": "금곡로",
        "address": "경기 수원시 권선구 금곡로197번길 18-23 105호(금곡동 해피라움블루)",
        "score": 15.600034,
        "win1": 3,
        "win2": 3,
        "last_win_date": "2026-05-02"
      }
    },
    {
      "type": "Feature",
      "geometry": {
        "type": "Point",
        "coordinates": [
          127.111343157756,
          37.3503879362991
        ]
      },
      "properties": {
        "store_id": "store-00050",
        "name": "태인(금돼지) 복권",
        "address": "경기 성남시 분당구 돌마로 85 제105호(금곡동 동양프라자)",
        "score": 10.471138,
        "win1": 2,
        "win2": 2,
        "last_win_date": "2026-04-18"
      }
    },
    {
      "type": "Feature",
      "geometry": {
        "type": "Point",
        "coordinates": [
          127.122640497605,
          37.3841135146719
        ]
      },
      "properties": {
        "store_id": "store-00051",
        "name": "로또복권로데오서현점",
        "address": "경기 성남시 분당구 분당로53번길 20 1층 109호(서현동 이랜드분당프라자)",
        "score": 10.678348,
        "win1": 2,
        "win2": 2,
        "last_win_date": "2026-04-18"
      }
    },
    {
      "type": "Feature",
      "geometry": {
        "type": "Point",
        "coordinates": [
          126.79116652651,
          37.4970897523205
        ]
      },
      "properties": {
        "store_id": "store-00052",
        "name": "풍전슈퍼",
        "address": "경기 부천시 조마루로 428",
        "score": 5.374636,
        "win1": 1,
        "win2": 1,
        "last_win_date": "2026-04-18"
      }
    },
    {
      "type": "Feature",
      "geometry": {
        "type": "Point",
        "coordinates": [
          126.756157163348,
          37.500271788366
        ]
      },
      "properties": {
        "store_id": "store-00053",
        "name": "행운드림복권",
        "address": "경기 부천시 조마루로105번길 8-12 103호",
        "score": 5.374636,
        "win1": 1,
        "win2": 1,
        "last_win_date": "2026-04-18"
      }
    },
    {
      "type": "Feature",
      "geometry": {
        "type": "Point",
        "coordinates": [
          126.600921729215,
          37.6101594369677
        ]
      },
      "properties": {
        "store_id": "store-00054",
        "name": "씨유 학운중앙점",
        "address": "경기 김포시 황금4로 99 101호",
        "score": 5.374636,
        "win1": 1,
        "win2": 1,
        "last_win_date": "2026-04-18"
      }
    },
    {
      "type": "Feature",
      "geometry": {
        "type": "Point",
        "coordinates": [
          126.77057700604,
          37.6037208119895
        ]
      },
      "properties": {
        "store_id": "store-00055",
        "name": "한아름 복권",
        "address": "경기 김포시 장차로 19 102호",
        "score": 5.374636,
        "win1": 1,
        "win2": 1,
        "last_win_date": "2026-04-18"
      }
    },
    {
      "type": "Feature",
      "geometry": {
        "type": "Point",
        "coordinates": [
          127.246300500251,
          37.370035951021
        ]
      },
      "properties": {
        "store_id": "store-00056",
        "name": "행운복권방(매산리)",
        "address": "경기 광주시 양벌로 329",
        "score": 5.374636,
        "win1": 1,
        "win2": 1,
        "last_win_date": "2026-04-18"
      }
    },
    {
      "type": "Feature",
      "geometry": {
        "type": "Point",
        "coordinates": [
          127.304090467705,
          37.37007178215
        ]
      },
      "properties": {
        "store_id": "store-00057",
        "name": "행복한사람들 (흥부네)",
        "address": "경기 광주시 경충대로 1014",
        "score": 25.546804,
        "win1": 5,
        "win2": 5,
        "last_win_date": "2026-05-16"
      }
    },
    {
      "type": "Feature",
      "geometry": {
        "type": "Point",
        "coordinates": [
          126.759126089146,
          37.6910258121099
        ]
      },
      "properties": {
        "store_id": "store-00058",
        "name": "대박복권방",
        "address": "경기 고양시 일산서구 경의로 823 1층",
        "score": 5.374636,
        "win1": 1,
        "win2": 1,
        "last_win_date": "2026-04-18"
      }
    },
    {
      "type": "Feature",
      "geometry": {
        "type": "Point",
        "coordinates": [
          126.832227144303,
          37.6345200961672
        ]
      },
      "properties": {
        "store_id": "store-00059",
        "name": "교통카드충전소",
        "address": "경기 고양시 덕양구 화정로 58 화정역 2번출구",
        "score": 15.748639,
        "win1": 3,
        "win2": 3,
        "last_win_date": "2026-05-16"
      }
    },
    {
      "type": "Feature",
      "geometry": {
        "type": "Point",
        "coordinates": [
          128.596403426027,
          38.2139378737812
        ]
      },
      "properties": {
        "store_id": "store-00060",
        "name": "일등유통",
        "address": "강원 속초시 중앙로 274 1층",
        "score": 5.374636,
        "win1": 1,
        "win2": 1,
        "last_win_date": "2026-04-18"
      }
    },
    {
      "type": "Feature",
      "geometry": {
        "type": "Point",
        "coordinates": [
          129.124957617541,
          37.4973113489147
        ]
      },
      "properties": {
        "store_id": "store-00061",
        "name": "복권명가",
        "address": "강원 동해시 송정로 47-1 102호",
        "score": 5.374636,
        "win1": 1,
        "win2": 1,
        "last_win_date": "2026-04-18"
      }
    },
    {
      "type": "Feature",
      "geometry": {
        "type": "Point",
        "coordinates": [
          127.469374894761,
          36.6563109562728
        ]
      },
      "properties": {
        "store_id": "store-00062",
        "name": "도깨비",
        "address": "충북 청주시 흥덕구 사운로 330",
        "score": 5.374636,
        "win1": 1,
        "win2": 1,
        "last_win_date": "2026-04-18"
      }
    },
    {
      "type": "Feature",
      "geometry": {
        "type": "Point",
        "coordinates": [
          127.485124581418,
          36.6497584837013
        ]
      },
      "properties": {
        "store_id": "store-00063",
        "name": "바다 복권판매점",
        "address": "충북 청주시 청원구 직지대로 855",
        "score": 5.374636,
        "win1": 1,
        "win2": 1,
        "last_win_date": "2026-04-18"
      }
    },
    {
      "type": "Feature",
      "geometry": {
        "type": "Point",
        "coordinates": [
          127.497943058392,
          36.6187733770649
        ]
      },
      "properties": {
        "store_id": "store-00064",
        "name": "행운복권방",
        "address": "충북 청주시 상당구 단재로 119",
        "score": 5.374636,
        "win1": 1,
        "win2": 1,
        "last_win_date": "2026-04-18"
      }
    },
    {
      "type": "Feature",
      "geometry": {
        "type": "Point",
        "coordinates": [
          127.569045037481,
          36.7768694291308
        ]
      },
      "properties": {
        "store_id": "store-00065",
        "name": "세븐복권",
        "address": "충북 증평군 초중6길 19 1층(세븐일레븐 내)",
        "score": 5.374636,
        "win1": 1,
        "win2": 1,
        "last_win_date": "2026-04-18"
      }
    },
    {
      "type": "Feature",
      "geometry": {
        "type": "Point",
        "coordinates": [
          127.681854861164,
          36.9297674237422
        ]
      },
      "properties": {
        "store_id": "store-00066",
        "name": "사거리로또",
        "address": "충북 음성군 음성로 91 1층",
        "score": 5.374636,
        "win1": 1,
        "win2": 1,
        "last_win_date": "2026-04-18"
      }
    },
    {
      "type": "Feature",
      "geometry": {
        "type": "Point",
        "coordinates": [
          127.133507231179,
          36.8278627967287
        ]
      },
      "properties": {
        "store_id": "store-00067",
        "name": "수레크레이션이벤트기획",
        "address": "충남 천안시 서북구 성정중4길 3 증축 1층동 4호(동물병원 옆 복권방)",
        "score": 5.374636,
        "win1": 1,
        "win2": 1,
        "last_win_date": "2026-04-18"
      }
    },
    {
      "type": "Feature",
      "geometry": {
        "type": "Point",
        "coordinates": [
          126.952508116732,
          36.5504199290193
        ]
      },
      "properties": {
        "store_id": "store-00068",
        "name": "유구복권방",
        "address": "충남 공주시 중앙2길 70 1층",
        "score": 5.374636,
        "win1": 1,
        "win2": 1,
        "last_win_date": "2026-04-18"
      }
    },
    {
      "type": "Feature",
      "geometry": {
        "type": "Point",
        "coordinates": [
          127.256682978532,
          36.2648667116878
        ]
      },
      "properties": {
        "store_id": "store-00069",
        "name": "로또 계룡에스파",
        "address": "충남 계룡시 대실남북3길 16 계룡 한라비발디센트럴 상가 5호",
        "score": 5.374636,
        "win1": 1,
        "win2": 1,
        "last_win_date": "2026-04-18"
      }
    },
    {
      "type": "Feature",
      "geometry": {
        "type": "Point",
        "coordinates": [
          126.844958110122,
          35.572332165993
        ]
      },
      "properties": {
        "store_id": "store-00070",
        "name": "터미널복권방",
        "address": "전북 정읍시 연지8길 6",
        "score": 10.337516,
        "win1": 2,
        "win2": 2,
        "last_win_date": "2026-04-18"
      }
    },
    {
      "type": "Feature",
      "geometry": {
        "type": "Point",
        "coordinates": [
          127.116557871297,
          35.8040235054375
        ]
      },
      "properties": {
        "store_id": "store-00071",
        "name": "세븐일레븐 전주상산타운점",
        "address": "전북 전주시 완산구 거마평로 127",
        "score": 5.374636,
        "win1": 1,
        "win2": 1,
        "last_win_date": "2026-04-18"
      }
    },
    {
      "type": "Feature",
      "geometry": {
        "type": "Point",
        "coordinates": [
          127.154987847802,
          35.8487871813803
        ]
      },
      "properties": {
        "store_id": "store-00072",
        "name": "썬",
        "address": "전북 전주시 덕진구 우아3길 18",
        "score": 5.374636,
        "win1": 1,
        "win2": 1,
        "last_win_date": "2026-04-18"
      }
    },
    {
      "type": "Feature",
      "geometry": {
        "type": "Point",
        "coordinates": [
          127.077328796243,
          35.8497686443551
        ]
      },
      "properties": {
        "store_id": "store-00073",
        "name": "왕대박로또",
        "address": "전북 전주시 덕진구 만성북로 19 조은 프라자 106호",
        "score": 5.374636,
        "win1": 1,
        "win2": 1,
        "last_win_date": "2026-04-18"
      }
    },
    {
      "type": "Feature",
      "geometry": {
        "type": "Point",
        "coordinates": [
          126.997229871301,
          35.9603454488036
        ]
      },
      "properties": {
        "store_id": "store-00074",
        "name": "행운복권방 보생당건강원",
        "address": "전북 익산시 무왕로 1268",
        "score": 10.471138,
        "win1": 2,
        "win2": 2,
        "last_win_date": "2026-04-18"
      }
    },
    {
      "type": "Feature",
      "geometry": {
        "type": "Point",
        "coordinates": [
          127.526282745936,
          34.945647452545
        ]
      },
      "properties": {
        "store_id": "store-00075",
        "name": "알리바이금당점",
        "address": "전남 순천시 대석길 44",
        "score": 5.374636,
        "win1": 1,
        "win2": 1,
        "last_win_date": "2026-04-18"
      }
    },
    {
      "type": "Feature",
      "geometry": {
        "type": "Point",
        "coordinates": [
          129.34820612218,
          36.0391307607304
        ]
      },
      "properties": {
        "store_id": "store-00076",
        "name": "로또복권보성점",
        "address": "경북 포항시 북구 용흥로 126 보성아파트상가101호",
        "score": 5.374636,
        "win1": 1,
        "win2": 1,
        "last_win_date": "2026-04-18"
      }
    },
    {
      "type": "Feature",
      "geometry": {
        "type": "Point",
        "coordinates": [
          129.396033290327,
          36.0807952248086
        ]
      },
      "properties": {
        "store_id": "store-00077",
        "name": "복권나라",
        "address": "경북 포항시 북구 장량로140번길 9",
        "score": 11.042586,
        "win1": 2,
        "win2": 2,
        "last_win_date": "2026-05-16"
      }
    },
    {
      "type": "Feature",
      "geometry": {
        "type": "Point",
        "coordinates": [
          128.365925799649,
          36.0330069748637
        ]
      },
      "properties": {
        "store_id": "store-00078",
        "name": "복권판매점 약목점",
        "address": "경북 칠곡군 약목로 75-3 1층",
        "score": 5.374636,
        "win1": 1,
        "win2": 1,
        "last_win_date": "2026-04-18"
      }
    },
    {
      "type": "Feature",
      "geometry": {
        "type": "Point",
        "coordinates": [
          128.698489519155,
          36.3453039755571
        ]
      },
      "properties": {
        "store_id": "store-00079",
        "name": "로또명당",
        "address": "경북 의성군 중앙길 10-1 1층",
        "score": 5.374636,
        "win1": 1,
        "win2": 1,
        "last_win_date": "2026-04-18"
      }
    },
    {
      "type": "Feature",
      "geometry": {
        "type": "Point",
        "coordinates": [
          130.908262140333,
          37.4826762682311
        ]
      },
      "properties": {
        "store_id": "store-00080",
        "name": "덕성로또",
        "address": "경북 울릉군 도동길 52",
        "score": 16.123909,
        "win1": 3,
        "win2": 3,
        "last_win_date": "2026-04-18"
      }
    },
    {
      "type": "Feature",
      "geometry": {
        "type": "Point",
        "coordinates": [
          128.166444436938,
          36.4156934708281
        ]
      },
      "properties": {
        "store_id": "store-00081",
        "name": "복권일번지",
        "address": "경북 상주시 중앙로 256",
        "score": 5.374636,
        "win1": 1,
        "win2": 1,
        "last_win_date": "2026-04-18"
      }
    },
    {
      "type": "Feature",
      "geometry": {
        "type": "Point",
        "coordinates": [
          128.348002420191,
          36.1462414035748
        ]
      },
      "properties": {
        "store_id": "store-00082",
        "name": "왕대박(원평점)",
        "address": "경북 구미시 선산대로 183",
        "score": 15.590133,
        "win1": 3,
        "win2": 3,
        "last_win_date": "2026-04-25"
      }
    },
    {
      "type": "Feature",
      "geometry": {
        "type": "Point",
        "coordinates": [
          128.35496092639,
          36.0898082817526
        ]
      },
      "properties": {
        "store_id": "store-00083",
        "name": "미니풀 복권판매점",
        "address": "경북 구미시 상사서로 81",
        "score": 10.337516,
        "win1": 2,
        "win2": 2,
        "last_win_date": "2026-04-18"
      }
    },
    {
      "type": "Feature",
      "geometry": {
        "type": "Point",
        "coordinates": [
          129.203021310129,
          35.8410094421566
        ]
      },
      "properties": {
        "store_id": "store-00084",
        "name": "CU노서점",
        "address": "경북 경주시 금성로259번길 38 1층 CU 노서점 내",
        "score": 10.96779,
        "win1": 2,
        "win2": 2,
        "last_win_date": "2026-05-09"
      }
    },
    {
      "type": "Feature",
      "geometry": {
        "type": "Point",
        "coordinates": [
          128.70218850738,
          35.2194766939923
        ]
      },
      "properties": {
        "store_id": "store-00085",
        "name": "행복나눔복권방",
        "address": "경남 창원시 성산구 창이대로 733 상가A동 2층 204호",
        "score": 5.374636,
        "win1": 1,
        "win2": 1,
        "last_win_date": "2026-04-18"
      }
    },
    {
      "type": "Feature",
      "geometry": {
        "type": "Point",
        "coordinates": [
          128.872195319319,
          35.250901856245
        ]
      },
      "properties": {
        "store_id": "store-00086",
        "name": "구산복권방",
        "address": "경남 김해시 가락로 291 107호",
        "score": 10.272024,
        "win1": 2,
        "win2": 2,
        "last_win_date": "2026-04-18"
      }
    },
    {
      "type": "Feature",
      "geometry": {
        "type": "Point",
        "coordinates": [
          126.565595082545,
          33.5206606916378
        ]
      },
      "properties": {
        "store_id": "store-00087",
        "name": "화북1등복권방",
        "address": "제주 제주시 진남로6길 21",
        "score": 5.374636,
        "win1": 1,
        "win2": 1,
        "last_win_date": "2026-04-18"
      }
    },
    {
      "type": "Feature",
      "geometry": {
        "type": "Point",
        "coordinates": [
          126.991896039813,
          37.5707099565421
        ]
      },
      "properties": {
        "store_id": "store-00088",
        "name": "종로3가1호선역2번출구가로판매점82호",
        "address": "서울 종로구 돈화문로 23 가판",
        "score": 31.052604,
        "win1": 6,
        "win2": 6,
        "last_win_date": "2026-05-02"
      }
    },
    {
      "type": "Feature",
      "geometry": {
        "type": "Point",
        "coordinates": [
          126.899242004253,
          37.5199566804594
        ]
      },
      "properties": {
        "store_id": "store-00089",
        "name": "달나라복권",
        "address": "서울 영등포구 영등포로28길 5 1층",
        "score": 5.303711,
        "win1": 1,
        "win2": 1,
        "last_win_date": "2026-04-11"
      }
    },
    {
      "type": "Feature",
      "geometry": {
        "type": "Point",
        "coordinates": [
          126.906749912597,
          37.5167419411213
        ]
      },
      "properties": {
        "store_id": "store-00090",
        "name": "로또킹",
        "address": "서울 영등포구 영중로 2 1층(영등포동3가)",
        "score": 65.053968,
        "win1": 13,
        "win2": 13,
        "last_win_date": "2026-05-30"
      }
    },
    {
      "type": "Feature",
      "geometry": {
        "type": "Point",
        "coordinates": [
          127.111093956687,
          37.5004127403363
        ]
      },
      "properties": {
        "store_id": "store-00091",
        "name": "가판대20호",
        "address": "서울 송파구 송파대로 365 석촌농협앞가판대20호",
        "score": 5.303711,
        "win1": 1,
        "win2": 1,
        "last_win_date": "2026-04-11"
      }
    },
    {
      "type": "Feature",
      "geometry": {
        "type": "Point",
        "coordinates": [
          127.100611434725,
          37.5144273491608
        ]
      },
      "properties": {
        "store_id": "store-00092",
        "name": "잠실매점",
        "address": "서울 송파구 올림픽로 269 잠실역 8번출구 앞 가판",
        "score": 46.355257,
        "win1": 9,
        "win2": 9,
        "last_win_date": "2026-06-06"
      }
    },
    {
      "type": "Feature",
      "geometry": {
        "type": "Point",
        "coordinates": [
          127.069235520084,
          37.551926228408
        ]
      },
      "properties": {
        "store_id": "store-00093",
        "name": "군음식과 로또",
        "address": "서울 성동구 동일로 223-1 1층",
        "score": 5.303711,
        "win1": 1,
        "win2": 1,
        "last_win_date": "2026-04-11"
      }
    },
    {
      "type": "Feature",
      "geometry": {
        "type": "Point",
        "coordinates": [
          127.0205525517,
          37.5543694139258
        ]
      },
      "properties": {
        "store_id": "store-00094",
        "name": "대박 복권방",
        "address": "서울 성동구 금호로 148-1 1층",
        "score": 5.303711,
        "win1": 1,
        "win2": 1,
        "last_win_date": "2026-04-11"
      }
    },
    {
      "type": "Feature",
      "geometry": {
        "type": "Point",
        "coordinates": [
          127.002413006799,
          37.5039351769908
        ]
      },
      "properties": {
        "store_id": "store-00095",
        "name": "오케이상사",
        "address": "서울 서초구 신반포로 176 센트럴시티내100호매점",
        "score": 36.234099,
        "win1": 7,
        "win2": 7,
        "last_win_date": "2026-06-13"
      }
    },
    {
      "type": "Feature",
      "geometry": {
        "type": "Point",
        "coordinates": [
          127.015025591396,
          37.485018595965
        ]
      },
      "properties": {
        "store_id": "store-00096",
        "name": "가판점",
        "address": "서울 서초구 효령로 283 가판",
        "score": 5.303711,
        "win1": 1,
        "win2": 1,
        "last_win_date": "2026-04-11"
      }
    },
    {
      "type": "Feature",
      "geometry": {
        "type": "Point",
        "coordinates": [
          126.947098319374,
          37.539973013511
        ]
      },
      "properties": {
        "store_id": "store-00097",
        "name": "로또복권판매소",
        "address": "서울 마포구 마포대로 44 진도빌딩앞",
        "score": 9.886379,
        "win1": 2,
        "win2": 2,
        "last_win_date": "2026-04-11"
      }
    },
    {
      "type": "Feature",
      "geometry": {
        "type": "Point",
        "coordinates": [
          127.059877891806,
          37.5903959972497
        ]
      },
      "properties": {
        "store_id": "store-00098",
        "name": "경성식품",
        "address": "서울 동대문구 망우로21길 52",
        "score": 10.266591,
        "win1": 2,
        "win2": 2,
        "last_win_date": "2026-04-11"
      }
    },
    {
      "type": "Feature",
      "geometry": {
        "type": "Point",
        "coordinates": [
          127.035740521384,
          37.6648648343099
        ]
      },
      "properties": {
        "store_id": "store-00099",
        "name": "도깨비로또명당",
        "address": "서울 도봉구 도당로 77 1층",
        "score": 5.303711,
        "win1": 1,
        "win2": 1,
        "last_win_date": "2026-04-11"
      }
    },
    {
      "type": "Feature",
      "geometry": {
        "type": "Point",
        "coordinates": [
          127.049060560533,
          37.6532567533904
        ]
      },
      "properties": {
        "store_id": "store-00100",
        "name": "가판 창동역점",
        "address": "서울 도봉구 마들로11길 73 창동역문화마당앞",
        "score": 11.202104,
        "win1": 2,
        "win2": 2,
        "last_win_date": "2026-06-06"
      }
    },
    {
      "type": "Feature",
      "geometry": {
        "type": "Point",
        "coordinates": [
          127.054950932229,
          37.6791213093376
        ]
      },
      "properties": {
        "store_id": "store-00101",
        "name": "로또수락산점",
        "address": "서울 노원구 동일로 1689 대덕하이베라스101호",
        "score": 5.303711,
        "win1": 1,
        "win2": 1,
        "last_win_date": "2026-04-11"
      }
    },
    {
      "type": "Feature",
      "geometry": {
        "type": "Point",
        "coordinates": [
          126.863640862201,
          37.5040439990616
        ]
      },
      "properties": {
        "store_id": "store-00102",
        "name": "행운",
        "address": "서울 구로구 경인로47길 122 1층 102호",
        "score": 5.303711,
        "win1": 1,
        "win2": 1,
        "last_win_date": "2026-04-11"
      }
    },
    {
      "type": "Feature",
      "geometry": {
        "type": "Point",
        "coordinates": [
          127.083279678039,
          37.5358609926836
        ]
      },
      "properties": {
        "store_id": "store-00103",
        "name": "자양사거리가로매점",
        "address": "서울 광진구 자양로13길 6 1층",
        "score": 5.303711,
        "win1": 1,
        "win2": 1,
        "last_win_date": "2026-04-11"
      }
    },
    {
      "type": "Feature",
      "geometry": {
        "type": "Point",
        "coordinates": [
          126.86325065944,
          37.5489880207308
        ]
      },
      "properties": {
        "store_id": "store-00104",
        "name": "길로또복권",
        "address": "서울 강서구 등촌로 215",
        "score": 10.823056,
        "win1": 2,
        "win2": 2,
        "last_win_date": "2026-05-02"
      }
    },
    {
      "type": "Feature",
      "geometry": {
        "type": "Point",
        "coordinates": [
          126.809041971947,
          37.5622452907068
        ]
      },
      "properties": {
        "store_id": "store-00105",
        "name": "신명",
        "address": "서울 강서구 방화동로 10-2 1층",
        "score": 5.303711,
        "win1": 1,
        "win2": 1,
        "last_win_date": "2026-04-11"
      }
    },
    {
      "type": "Feature",
      "geometry": {
        "type": "Point",
        "coordinates": [
          129.160264394183,
          35.1659815985534
        ]
      },
      "properties": {
        "store_id": "store-00106",
        "name": "요기어때",
        "address": "부산 해운대구 우동2로 15",
        "score": 10.072697,
        "win1": 2,
        "win2": 2,
        "last_win_date": "2026-04-11"
      }
    },
    {
      "type": "Feature",
      "geometry": {
        "type": "Point",
        "coordinates": [
          129.023884785615,
          35.1053984775353
        ]
      },
      "properties": {
        "store_id": "store-00107",
        "name": "복권판매점",
        "address": "부산 중구 흑교로 67-2",
        "score": 5.303711,
        "win1": 1,
        "win2": 1,
        "last_win_date": "2026-04-11"
      }
    },
    {
      "type": "Feature",
      "geometry": {
        "type": "Point",
        "coordinates": [
          129.11767382144,
          35.1552809499807
        ]
      },
      "properties": {
        "store_id": "store-00108",
        "name": "이마트24 광안리굿-7",
        "address": "부산 수영구 광안로 49",
        "score": 11.047457,
        "win1": 2,
        "win2": 2,
        "last_win_date": "2026-05-23"
      }
    },
    {
      "type": "Feature",
      "geometry": {
        "type": "Point",
        "coordinates": [
          129.116025416752,
          35.1683250826956
        ]
      },
      "properties": {
        "store_id": "store-00109",
        "name": "세원로또복권방",
        "address": "부산 수영구 수영로725번길 53 101호",
        "score": 17.101537,
        "win1": 3,
        "win2": 3,
        "last_win_date": "2026-06-13"
      }
    },
    {
      "type": "Feature",
      "geometry": {
        "type": "Point",
        "coordinates": [
          129.019736692817,
          35.1031606699609
        ]
      },
      "properties": {
        "store_id": "store-00110",
        "name": "복권천국",
        "address": "부산 서구 구덕로 207-1",
        "score": 5.303711,
        "win1": 1,
        "win2": 1,
        "last_win_date": "2026-04-11"
      }
    },
    {
      "type": "Feature",
      "geometry": {
        "type": "Point",
        "coordinates": [
          129.103802876136,
          35.1934072928716
        ]
      },
      "properties": {
        "store_id": "store-00111",
        "name": "글샘서점",
        "address": "부산 동래구 충렬대로428번길 69-1",
        "score": 5.303711,
        "win1": 1,
        "win2": 1,
        "last_win_date": "2026-04-11"
      }
    },
    {
      "type": "Feature",
      "geometry": {
        "type": "Point",
        "coordinates": [
          128.629216484392,
          35.8583716412482
        ]
      },
      "properties": {
        "store_id": "store-00112",
        "name": "지에스25범어더블유점",
        "address": "대구 수성구 달구벌대로 2438 1층 GS25범어더블유점",
        "score": 5.303711,
        "win1": 1,
        "win2": 1,
        "last_win_date": "2026-04-11"
      }
    },
    {
      "type": "Feature",
      "geometry": {
        "type": "Point",
        "coordinates": [
          128.55924065538,
          35.8898748397722
        ]
      },
      "properties": {
        "store_id": "store-00113",
        "name": "복권명당",
        "address": "대구 서구 팔달로 84 만평네거리",
        "score": 5.303711,
        "win1": 1,
        "win2": 1,
        "last_win_date": "2026-04-11"
      }
    },
    {
      "type": "Feature",
      "geometry": {
        "type": "Point",
        "coordinates": [
          128.506819049475,
          35.8512164420623
        ]
      },
      "properties": {
        "store_id": "store-00114",
        "name": "복권천국(성서점)",
        "address": "대구 달서구 성서로 377",
        "score": 10.400213,
        "win1": 2,
        "win2": 2,
        "last_win_date": "2026-04-11"
      }
    },
    {
      "type": "Feature",
      "geometry": {
        "type": "Point",
        "coordinates": [
          128.605137990592,
          35.8548387371786
        ]
      },
      "properties": {
        "store_id": "store-00115",
        "name": "로또명당",
        "address": "대구 남구 명덕로 322",
        "score": 5.303711,
        "win1": 1,
        "win2": 1,
        "last_win_date": "2026-04-11"
      }
    },
    {
      "type": "Feature",
      "geometry": {
        "type": "Point",
        "coordinates": [
          126.655241764938,
          37.4277189523348
        ]
      },
      "properties": {
        "store_id": "store-00116",
        "name": "한국인세계대박복권",
        "address": "인천 연수구 한나루로197번길 34",
        "score": 14.803842,
        "win1": 3,
        "win2": 3,
        "last_win_date": "2026-04-11"
      }
    },
    {
      "type": "Feature",
      "geometry": {
        "type": "Point",
        "coordinates": [
          126.685297322285,
          37.6133248782231
        ]
      },
      "properties": {
        "store_id": "store-00117",
        "name": "지에스 25 불로센터점",
        "address": "인천 서구 검단로 762-1 1층",
        "score": 5.303711,
        "win1": 1,
        "win2": 1,
        "last_win_date": "2026-04-11"
      }
    },
    {
      "type": "Feature",
      "geometry": {
        "type": "Point",
        "coordinates": [
          126.726281656042,
          37.5115550103661
        ]
      },
      "properties": {
        "store_id": "store-00118",
        "name": "대박천하마트",
        "address": "인천 부평구 굴포로 48",
        "score": 40.925324,
        "win1": 8,
        "win2": 8,
        "last_win_date": "2026-06-13"
      }
    },
    {
      "type": "Feature",
      "geometry": {
        "type": "Point",
        "coordinates": [
          126.697343765741,
          37.5140476651438
        ]
      },
      "properties": {
        "store_id": "store-00119",
        "name": "찐로또복권방 원적산점",
        "address": "인천 부평구 세월천로 111 1층",
        "score": 5.303711,
        "win1": 1,
        "win2": 1,
        "last_win_date": "2026-04-11"
      }
    },
    {
      "type": "Feature",
      "geometry": {
        "type": "Point",
        "coordinates": [
          126.736182083032,
          37.462626804721
        ]
      },
      "properties": {
        "store_id": "store-00120",
        "name": "대동슈퍼",
        "address": "인천 남동구 만수로 81",
        "score": 5.303711,
        "win1": 1,
        "win2": 1,
        "last_win_date": "2026-04-11"
      }
    },
    {
      "type": "Feature",
      "geometry": {
        "type": "Point",
        "coordinates": [
          126.715657541163,
          37.4630487175489
        ]
      },
      "properties": {
        "store_id": "store-00121",
        "name": "복권판매점",
        "address": "인천 남동구 백범로 307 1층",
        "score": 5.303711,
        "win1": 1,
        "win2": 1,
        "last_win_date": "2026-04-11"
      }
    },
    {
      "type": "Feature",
      "geometry": {
        "type": "Point",
        "coordinates": [
          126.487114150902,
          37.7382394131285
        ]
      },
      "properties": {
        "store_id": "store-00122",
        "name": "행복드림로또판매점",
        "address": "인천 강화군 중앙로 68 1층 101-1호 하나로마트",
        "score": 5.303711,
        "win1": 1,
        "win2": 1,
        "last_win_date": "2026-04-11"
      }
    },
    {
      "type": "Feature",
      "geometry": {
        "type": "Point",
        "coordinates": [
          126.928000071962,
          35.1329921244792
        ]
      },
      "properties": {
        "store_id": "store-00123",
        "name": "행복로또",
        "address": "광주 동구 남문로 699 행복로또",
        "score": 5.303711,
        "win1": 1,
        "win2": 1,
        "last_win_date": "2026-04-11"
      }
    },
    {
      "type": "Feature",
      "geometry": {
        "type": "Point",
        "coordinates": [
          126.900119663572,
          35.132880595537
        ]
      },
      "properties": {
        "store_id": "store-00124",
        "name": "노다지복권방백운점",
        "address": "광주 남구 서문대로 827 봉선주월대라수어썸브릿지상가동107호",
        "score": 16.143959,
        "win1": 3,
        "win2": 3,
        "last_win_date": "2026-05-23"
      }
    },
    {
      "type": "Feature",
      "geometry": {
        "type": "Point",
        "coordinates": [
          127.352257523621,
          36.3000710326732
        ]
      },
      "properties": {
        "store_id": "store-00125",
        "name": "행운모바일",
        "address": "대전 서구 가수원로 56",
        "score": 5.303711,
        "win1": 1,
        "win2": 1,
        "last_win_date": "2026-04-11"
      }
    },
    {
      "type": "Feature",
      "geometry": {
        "type": "Point",
        "coordinates": [
          126.85784373408,
          37.1263647838316
        ]
      },
      "properties": {
        "store_id": "store-00126",
        "name": "대박복권",
        "address": "경기 화성시 버들로 1375 CU편의점",
        "score": 10.332958,
        "win1": 2,
        "win2": 2,
        "last_win_date": "2026-04-11"
      }
    },
    {
      "type": "Feature",
      "geometry": {
        "type": "Point",
        "coordinates": [
          127.088753533189,
          37.0205952040705
        ]
      },
      "properties": {
        "store_id": "store-00127",
        "name": "지제역로또",
        "address": "경기 평택시 모산영신1길 39 1층 102호",
        "score": 5.303711,
        "win1": 1,
        "win2": 1,
        "last_win_date": "2026-04-11"
      }
    },
    {
      "type": "Feature",
      "geometry": {
        "type": "Point",
        "coordinates": [
          126.718241997855,
          37.7261729297037
        ]
      },
      "properties": {
        "store_id": "store-00128",
        "name": "교하로또판매점",
        "address": "경기 파주시 파주로 266 아이비타워 1층 112호",
        "score": 25.856916,
        "win1": 5,
        "win2": 5,
        "last_win_date": "2026-05-02"
      }
    },
    {
      "type": "Feature",
      "geometry": {
        "type": "Point",
        "coordinates": [
          126.875183403046,
          37.8514390610254
        ]
      },
      "properties": {
        "store_id": "store-00129",
        "name": "노다지복권방",
        "address": "경기 파주시 술이홀로 906",
        "score": 5.303711,
        "win1": 1,
        "win2": 1,
        "last_win_date": "2026-04-11"
      }
    },
    {
      "type": "Feature",
      "geometry": {
        "type": "Point",
        "coordinates": [
          126.774564270736,
          37.7644627345698
        ]
      },
      "properties": {
        "store_id": "store-00130",
        "name": "축복큰대운집",
        "address": "경기 파주시 중앙로 324 1층",
        "score": 5.303711,
        "win1": 1,
        "win2": 1,
        "last_win_date": "2026-04-11"
      }
    },
    {
      "type": "Feature",
      "geometry": {
        "type": "Point",
        "coordinates": [
          126.980345335344,
          37.3869178283016
        ]
      },
      "properties": {
        "store_id": "store-00131",
        "name": "순살로복권",
        "address": "경기 의왕시 내손중앙로 43 서광상가 14호",
        "score": 5.303711,
        "win1": 1,
        "win2": 1,
        "last_win_date": "2026-04-11"
      }
    },
    {
      "type": "Feature",
      "geometry": {
        "type": "Point",
        "coordinates": [
          127.077699871446,
          37.1607414331868
        ]
      },
      "properties": {
        "store_id": "store-00132",
        "name": "아이지에이마트 오산무지개점",
        "address": "경기 오산시 현충로 95",
        "score": 10.750221,
        "win1": 2,
        "win2": 2,
        "last_win_date": "2026-04-25"
      }
    },
    {
      "type": "Feature",
      "geometry": {
        "type": "Point",
        "coordinates": [
          126.81171262948,
          37.3374347050023
        ]
      },
      "properties": {
        "store_id": "store-00133",
        "name": "아이지에이마트 동명사랑점",
        "address": "경기 안산시 단원구 선부광장북로 36 113호",
        "score": 5.303711,
        "win1": 1,
        "win2": 1,
        "last_win_date": "2026-04-11"
      }
    },
    {
      "type": "Feature",
      "geometry": {
        "type": "Point",
        "coordinates": [
          126.683032822432,
          37.3223977593837
        ]
      },
      "properties": {
        "store_id": "store-00134",
        "name": "다온",
        "address": "경기 시흥시 거북섬4길 16 121호",
        "score": 5.303711,
        "win1": 1,
        "win2": 1,
        "last_win_date": "2026-04-11"
      }
    },
    {
      "type": "Feature",
      "geometry": {
        "type": "Point",
        "coordinates": [
          126.801620713753,
          37.4370981790032
        ]
      },
      "properties": {
        "store_id": "store-00135",
        "name": "1등복권방",
        "address": "경기 시흥시 은계번영길 7 112호",
        "score": 10.136472,
        "win1": 2,
        "win2": 2,
        "last_win_date": "2026-04-11"
      }
    },
    {
      "type": "Feature",
      "geometry": {
        "type": "Point",
        "coordinates": [
          127.02947739353,
          37.2672659687178
        ]
      },
      "properties": {
        "store_id": "store-00136",
        "name": "로또조아",
        "address": "경기 수원시 팔달구 인계로108번길 9 1층 101호(인계동 글로벌하임)",
        "score": 5.303711,
        "win1": 1,
        "win2": 1,
        "last_win_date": "2026-04-11"
      }
    },
    {
      "type": "Feature",
      "geometry": {
        "type": "Point",
        "coordinates": [
          127.132756913379,
          37.4337204682247
        ]
      },
      "properties": {
        "store_id": "store-00137",
        "name": "플러스",
        "address": "경기 성남시 중원구 광명로 33 1층",
        "score": 5.303711,
        "win1": 1,
        "win2": 1,
        "last_win_date": "2026-04-11"
      }
    },
    {
      "type": "Feature",
      "geometry": {
        "type": "Point",
        "coordinates": [
          126.775639441845,
          37.487129319857
        ]
      },
      "properties": {
        "store_id": "store-00138",
        "name": "행복미니슈퍼",
        "address": "경기 부천시 부일로 409",
        "score": 10.971661,
        "win1": 2,
        "win2": 2,
        "last_win_date": "2026-05-16"
      }
    },
    {
      "type": "Feature",
      "geometry": {
        "type": "Point",
        "coordinates": [
          127.116168502439,
          37.6674533670598
        ]
      },
      "properties": {
        "store_id": "store-00139",
        "name": "복권방",
        "address": "경기 남양주시 덕송2로10번길 27-16",
        "score": 5.303711,
        "win1": 1,
        "win2": 1,
        "last_win_date": "2026-04-11"
      }
    },
    {
      "type": "Feature",
      "geometry": {
        "type": "Point",
        "coordinates": [
          126.628147229109,
          37.656539769008
        ]
      },
      "properties": {
        "store_id": "store-00140",
        "name": "일등로또",
        "address": "경기 김포시 양곡로 494-21",
        "score": 5.303711,
        "win1": 1,
        "win2": 1,
        "last_win_date": "2026-04-11"
      }
    },
    {
      "type": "Feature",
      "geometry": {
        "type": "Point",
        "coordinates": [
          127.141570281902,
          37.5994316095684
        ]
      },
      "properties": {
        "store_id": "store-00141",
        "name": "대박",
        "address": "경기 구리시 안골로103번길 46 1층",
        "score": 11.280981,
        "win1": 2,
        "win2": 2,
        "last_win_date": "2026-06-13"
      }
    },
    {
      "type": "Feature",
      "geometry": {
        "type": "Point",
        "coordinates": [
          126.780140675938,
          37.6936991521008
        ]
      },
      "properties": {
        "store_id": "store-00142",
        "name": "키즈월드",
        "address": "경기 고양시 일산동구 중산로 241 해태쇼핑1층146호",
        "score": 5.303711,
        "win1": 1,
        "win2": 1,
        "last_win_date": "2026-04-11"
      }
    },
    {
      "type": "Feature",
      "geometry": {
        "type": "Point",
        "coordinates": [
          126.767301436388,
          37.6613188072903
        ]
      },
      "properties": {
        "store_id": "store-00143",
        "name": "아르파",
        "address": "경기 고양시 일산동구 무궁화로 20-18 101호",
        "score": 17.101537,
        "win1": 3,
        "win2": 3,
        "last_win_date": "2026-06-13"
      }
    },
    {
      "type": "Feature",
      "geometry": {
        "type": "Point",
        "coordinates": [
          126.833403944925,
          37.6336966419384
        ]
      },
      "properties": {
        "store_id": "store-00144",
        "name": "월드25",
        "address": "경기 고양시 덕양구 화신로260번길 66",
        "score": 5.303711,
        "win1": 1,
        "win2": 1,
        "last_win_date": "2026-04-11"
      }
    },
    {
      "type": "Feature",
      "geometry": {
        "type": "Point",
        "coordinates": [
          127.889910277195,
          37.691276675414
        ]
      },
      "properties": {
        "store_id": "store-00145",
        "name": "복권마트 & 씨스페이스 홍천점",
        "address": "강원 홍천군 홍천로 409 1층",
        "score": 21.811909,
        "win1": 4,
        "win2": 4,
        "last_win_date": "2026-05-23"
      }
    },
    {
      "type": "Feature",
      "geometry": {
        "type": "Point",
        "coordinates": [
          127.748749367662,
          37.8826206679494
        ]
      },
      "properties": {
        "store_id": "store-00146",
        "name": "봉의산마트",
        "address": "강원 춘천시 춘천로 326 1층",
        "score": 5.303711,
        "win1": 1,
        "win2": 1,
        "last_win_date": "2026-04-11"
      }
    },
    {
      "type": "Feature",
      "geometry": {
        "type": "Point",
        "coordinates": [
          127.932972171315,
          37.3615768576997
        ]
      },
      "properties": {
        "store_id": "store-00147",
        "name": "창원편의점",
        "address": "강원 원주시 모란1길 69 1층",
        "score": 5.303711,
        "win1": 1,
        "win2": 1,
        "last_win_date": "2026-04-11"
      }
    },
    {
      "type": "Feature",
      "geometry": {
        "type": "Point",
        "coordinates": [
          127.487445143803,
          36.6212568658454
        ]
      },
      "properties": {
        "store_id": "store-00148",
        "name": "영신슈퍼",
        "address": "충북 청주시 서원구 청남로 2119-1",
        "score": 5.303711,
        "win1": 1,
        "win2": 1,
        "last_win_date": "2026-04-11"
      }
    },
    {
      "type": "Feature",
      "geometry": {
        "type": "Point",
        "coordinates": [
          127.580914940543,
          36.7839561792603
        ]
      },
      "properties": {
        "store_id": "store-00149",
        "name": "복권나라",
        "address": "충북 증평군 중앙로 199-1",
        "score": 5.303711,
        "win1": 1,
        "win2": 1,
        "last_win_date": "2026-04-11"
      }
    },
    {
      "type": "Feature",
      "geometry": {
        "type": "Point",
        "coordinates": [
          127.096351933408,
          36.7326625234855
        ]
      },
      "properties": {
        "store_id": "store-00150",
        "name": "로또명당 풍세산단점",
        "address": "충남 천안시 동남구 돈마루1길 167-14 2동 101호",
        "score": 5.303711,
        "win1": 1,
        "win2": 1,
        "last_win_date": "2026-04-11"
      }
    },
    {
      "type": "Feature",
      "geometry": {
        "type": "Point",
        "coordinates": [
          126.685407759675,
          36.6723914888636
        ]
      },
      "properties": {
        "store_id": "store-00151",
        "name": "하나로복권",
        "address": "충남 예산군 예목로 171 1층 하나로마트 내",
        "score": 5.303711,
        "win1": 1,
        "win2": 1,
        "last_win_date": "2026-04-11"
      }
    },
    {
      "type": "Feature",
      "geometry": {
        "type": "Point",
        "coordinates": [
          126.8556497742,
          35.5589307921059
        ]
      },
      "properties": {
        "store_id": "store-00152",
        "name": "대흥당",
        "address": "전북 정읍시 관통로 102",
        "score": 11.202104,
        "win1": 2,
        "win2": 2,
        "last_win_date": "2026-06-06"
      }
    },
    {
      "type": "Feature",
      "geometry": {
        "type": "Point",
        "coordinates": [
          127.15353776217,
          35.8581217166949
        ]
      },
      "properties": {
        "store_id": "store-00153",
        "name": "드림로또",
        "address": "전북 전주시 덕진구 소리로 198",
        "score": 5.303711,
        "win1": 1,
        "win2": 1,
        "last_win_date": "2026-04-11"
      }
    },
    {
      "type": "Feature",
      "geometry": {
        "type": "Point",
        "coordinates": [
          126.967473812788,
          35.9359671758638
        ]
      },
      "properties": {
        "store_id": "store-00154",
        "name": "주인공로또판매점",
        "address": "전북 익산시 서동로 150",
        "score": 5.303711,
        "win1": 1,
        "win2": 1,
        "last_win_date": "2026-04-11"
      }
    },
    {
      "type": "Feature",
      "geometry": {
        "type": "Point",
        "coordinates": [
          126.931995072451,
          35.945261885154
        ]
      },
      "properties": {
        "store_id": "store-00155",
        "name": "로또명당",
        "address": "전북 익산시 군익로 415",
        "score": 5.303711,
        "win1": 1,
        "win2": 1,
        "last_win_date": "2026-04-11"
      }
    },
    {
      "type": "Feature",
      "geometry": {
        "type": "Point",
        "coordinates": [
          126.786064812753,
          35.3035911765181
        ]
      },
      "properties": {
        "store_id": "store-00156",
        "name": "장성씨유읍내점",
        "address": "전남 장성군 영천로 217 1층 CU편의점",
        "score": 5.303711,
        "win1": 1,
        "win2": 1,
        "last_win_date": "2026-04-11"
      }
    },
    {
      "type": "Feature",
      "geometry": {
        "type": "Point",
        "coordinates": [
          129.36800122423,
          36.0381442516156
        ]
      },
      "properties": {
        "store_id": "store-00157",
        "name": "성심상회",
        "address": "경북 포항시 북구 불종로 78",
        "score": 28.833977,
        "win1": 6,
        "win2": 6,
        "last_win_date": "2026-04-11"
      }
    },
    {
      "type": "Feature",
      "geometry": {
        "type": "Point",
        "coordinates": [
          129.371159979616,
          36.0974920153343
        ]
      },
      "properties": {
        "store_id": "store-00158",
        "name": "행복충전",
        "address": "경북 포항시 북구 삼흥로 441 3호",
        "score": 15.297601,
        "win1": 3,
        "win2": 3,
        "last_win_date": "2026-04-11"
      }
    },
    {
      "type": "Feature",
      "geometry": {
        "type": "Point",
        "coordinates": [
          128.716343224392,
          36.5618688182115
        ]
      },
      "properties": {
        "store_id": "store-00159",
        "name": "로또복권 계백장군점",
        "address": "경북 안동시 안기천로 49",
        "score": 5.303711,
        "win1": 1,
        "win2": 1,
        "last_win_date": "2026-04-11"
      }
    },
    {
      "type": "Feature",
      "geometry": {
        "type": "Point",
        "coordinates": [
          128.118500444758,
          36.1347797372166
        ]
      },
      "properties": {
        "store_id": "store-00160",
        "name": "로또복권",
        "address": "경북 김천시 신음새동네길 13",
        "score": 16.445638,
        "win1": 3,
        "win2": 3,
        "last_win_date": "2026-06-13"
      }
    },
    {
      "type": "Feature",
      "geometry": {
        "type": "Point",
        "coordinates": [
          128.570218603439,
          35.2102518071955
        ]
      },
      "properties": {
        "store_id": "store-00161",
        "name": "똥 밟은 돼지 복권방",
        "address": "경남 창원시 마산합포구 천하장사로 64 1층 102호",
        "score": 5.303711,
        "win1": 1,
        "win2": 1,
        "last_win_date": "2026-04-11"
      }
    },
    {
      "type": "Feature",
      "geometry": {
        "type": "Point",
        "coordinates": [
          128.09003341063,
          35.1815267583672
        ]
      },
      "properties": {
        "store_id": "store-00162",
        "name": "인정상회",
        "address": "경남 진주시 진주대로 910 1층",
        "score": 10.607422,
        "win1": 2,
        "win2": 2,
        "last_win_date": "2026-04-11"
      }
    },
    {
      "type": "Feature",
      "geometry": {
        "type": "Point",
        "coordinates": [
          128.77031807899,
          35.2783163096647
        ]
      },
      "properties": {
        "store_id": "store-00163",
        "name": "진례로또명당",
        "address": "경남 김해시 테크노밸리1로 196-43 Cu편의점 옆",
        "score": 5.303711,
        "win1": 1,
        "win2": 1,
        "last_win_date": "2026-04-11"
      }
    },
    {
      "type": "Feature",
      "geometry": {
        "type": "Point",
        "coordinates": [
          128.802172011798,
          35.1903183939803
        ]
      },
      "properties": {
        "store_id": "store-00164",
        "name": "꿈의가게",
        "address": "경남 김해시 계동로 220 102호 복권판매점",
        "score": 10.332958,
        "win1": 2,
        "win2": 2,
        "last_win_date": "2026-04-11"
      }
    },
    {
      "type": "Feature",
      "geometry": {
        "type": "Point",
        "coordinates": [
          126.50891938515,
          33.4810324742219
        ]
      },
      "properties": {
        "store_id": "store-00165",
        "name": "씨유 제주연북로점",
        "address": "제주 제주시 연북로 260 1층",
        "score": 5.303711,
        "win1": 1,
        "win2": 1,
        "last_win_date": "2026-04-11"
      }
    },
    {
      "type": "Feature",
      "geometry": {
        "type": "Point",
        "coordinates": [
          126.402807729934,
          33.480187125123
        ]
      },
      "properties": {
        "store_id": "store-00166",
        "name": "제주 일번가",
        "address": "제주 제주시 하귀로23길 1",
        "score": 5.303711,
        "win1": 1,
        "win2": 1,
        "last_win_date": "2026-04-11"
      }
    },
    {
      "type": "Feature",
      "geometry": {
        "type": "Point",
        "coordinates": [
          126.564574700446,
          33.2503332950509
        ]
      },
      "properties": {
        "store_id": "store-00167",
        "name": "천하명당복권",
        "address": "제주 서귀포시 동문로 38",
        "score": 5.303711,
        "win1": 1,
        "win2": 1,
        "last_win_date": "2026-04-11"
      }
    },
    {
      "type": "Feature",
      "geometry": {
        "type": "Point",
        "coordinates": [
          126.97327976746,
          37.5630615400711
        ]
      },
      "properties": {
        "store_id": "store-00168",
        "name": "가로판매점",
        "address": "서울 중구 서소문로 109",
        "score": 5.233722,
        "win1": 1,
        "win2": 1,
        "last_win_date": "2026-04-04"
      }
    },
    {
      "type": "Feature",
      "geometry": {
        "type": "Point",
        "coordinates": [
          126.919784349949,
          37.619245156065
        ]
      },
      "properties": {
        "store_id": "store-00169",
        "name": "월드24시",
        "address": "서울 은평구 통일로 855-15",
        "score": 25.510722,
        "win1": 5,
        "win2": 5,
        "last_win_date": "2026-05-02"
      }
    },
    {
      "type": "Feature",
      "geometry": {
        "type": "Point",
        "coordinates": [
          126.931468829573,
          37.608381192552
        ]
      },
      "properties": {
        "store_id": "store-00170",
        "name": "꿈이있는 로또점(복권판매점)",
        "address": "서울 은평구 통일로 699 1층",
        "score": 9.63735,
        "win1": 2,
        "win2": 2,
        "last_win_date": "2026-04-04"
      }
    },
    {
      "type": "Feature",
      "geometry": {
        "type": "Point",
        "coordinates": [
          126.902185445265,
          37.49164642744
        ]
      },
      "properties": {
        "store_id": "store-00171",
        "name": "G마트",
        "address": "서울 영등포구 디지털로 387",
        "score": 5.233722,
        "win1": 1,
        "win2": 1,
        "last_win_date": "2026-04-04"
      }
    },
    {
      "type": "Feature",
      "geometry": {
        "type": "Point",
        "coordinates": [
          126.900093144418,
          37.5089051531946
        ]
      },
      "properties": {
        "store_id": "store-00172",
        "name": "대박찬스",
        "address": "서울 영등포구 도림로 356 1층복권방",
        "score": 5.233722,
        "win1": 1,
        "win2": 1,
        "last_win_date": "2026-04-04"
      }
    },
    {
      "type": "Feature",
      "geometry": {
        "type": "Point",
        "coordinates": [
          127.006834366246,
          37.5064357442307
        ]
      },
      "properties": {
        "store_id": "store-00173",
        "name": "연초2호 쇼케이스7호",
        "address": "서울 서초구 신반포로 194 쇼케이스7호",
        "score": 5.233722,
        "win1": 1,
        "win2": 1,
        "last_win_date": "2026-04-04"
      }
    },
    {
      "type": "Feature",
      "geometry": {
        "type": "Point",
        "coordinates": [
          127.044337605924,
          37.4713508485798
        ]
      },
      "properties": {
        "store_id": "store-00174",
        "name": "스포츠베팅샵",
        "address": "서울 서초구 동산로 48 104호",
        "score": 5.233722,
        "win1": 1,
        "win2": 1,
        "last_win_date": "2026-04-04"
      }
    },
    {
      "type": "Feature",
      "geometry": {
        "type": "Point",
        "coordinates": [
          126.888548408154,
          37.581324224744
        ]
      },
      "properties": {
        "store_id": "store-00175",
        "name": "인더라인25",
        "address": "서울 마포구 월드컵북로54길 17 132호",
        "score": 5.233722,
        "win1": 1,
        "win2": 1,
        "last_win_date": "2026-04-04"
      }
    },
    {
      "type": "Feature",
      "geometry": {
        "type": "Point",
        "coordinates": [
          127.057521604998,
          37.5765011502586
        ]
      },
      "properties": {
        "store_id": "store-00176",
        "name": "웨이스탑(전농점)",
        "address": "서울 동대문구 전농로 129",
        "score": 5.233722,
        "win1": 1,
        "win2": 1,
        "last_win_date": "2026-04-04"
      }
    },
    {
      "type": "Feature",
      "geometry": {
        "type": "Point",
        "coordinates": [
          127.046291895459,
          37.6530884876081
        ]
      },
      "properties": {
        "store_id": "store-00177",
        "name": "행운복권방",
        "address": "서울 도봉구 노해로63길 79 우림빌딩 112호",
        "score": 11.210992,
        "win1": 2,
        "win2": 2,
        "last_win_date": "2026-06-13"
      }
    },
    {
      "type": "Feature",
      "geometry": {
        "type": "Point",
        "coordinates": [
          127.144184755031,
          37.5401194764202
        ]
      },
      "properties": {
        "store_id": "store-00178",
        "name": "그린슈퍼",
        "address": "서울 강동구 천중로52길 15",
        "score": 5.233722,
        "win1": 1,
        "win2": 1,
        "last_win_date": "2026-04-04"
      }
    },
    {
      "type": "Feature",
      "geometry": {
        "type": "Point",
        "coordinates": [
          129.028315809427,
          35.0997065582699
        ]
      },
      "properties": {
        "store_id": "store-00179",
        "name": "프로토베팅샵",
        "address": "부산 중구 국제시장2길 5 4호",
        "score": 14.718795,
        "win1": 3,
        "win2": 3,
        "last_win_date": "2026-04-04"
      }
    },
    {
      "type": "Feature",
      "geometry": {
        "type": "Point",
        "coordinates": [
          129.024836147891,
          35.0962070791473
        ]
      },
      "properties": {
        "store_id": "store-00180",
        "name": "로터리복권방",
        "address": "부산 서구 자갈치로 4",
        "score": 5.233722,
        "win1": 1,
        "win2": 1,
        "last_win_date": "2026-04-04"
      }
    },
    {
      "type": "Feature",
      "geometry": {
        "type": "Point",
        "coordinates": [
          128.995735403505,
          35.1008223995913
        ]
      },
      "properties": {
        "store_id": "store-00181",
        "name": "복왕복권방",
        "address": "부산 사하구 낙동대로 191 2층",
        "score": 5.233722,
        "win1": 1,
        "win2": 1,
        "last_win_date": "2026-04-04"
      }
    },
    {
      "type": "Feature",
      "geometry": {
        "type": "Point",
        "coordinates": [
          129.061675365786,
          35.1575879422678
        ]
      },
      "properties": {
        "store_id": "store-00182",
        "name": "돈벼락맞는곳 부산서면점",
        "address": "부산 부산진구 서전로 18-1 1층",
        "score": 5.233722,
        "win1": 1,
        "win2": 1,
        "last_win_date": "2026-04-04"
      }
    },
    {
      "type": "Feature",
      "geometry": {
        "type": "Point",
        "coordinates": [
          129.08381668177,
          35.221634159317
        ]
      },
      "properties": {
        "store_id": "store-00183",
        "name": "우리들마트",
        "address": "부산 동래구 온천장로119번길 20 10호(온천동 온천아파트 점포)",
        "score": 9.696239,
        "win1": 2,
        "win2": 2,
        "last_win_date": "2026-04-04"
      }
    },
    {
      "type": "Feature",
      "geometry": {
        "type": "Point",
        "coordinates": [
          129.179271340486,
          35.3210954459104
        ]
      },
      "properties": {
        "store_id": "store-00184",
        "name": "뉴빅마트",
        "address": "부산 기장군 정관중앙로 48 106호",
        "score": 14.521623,
        "win1": 3,
        "win2": 3,
        "last_win_date": "2026-04-04"
      }
    },
    {
      "type": "Feature",
      "geometry": {
        "type": "Point",
        "coordinates": [
          128.578466117132,
          35.8685996061089
        ]
      },
      "properties": {
        "store_id": "store-00185",
        "name": "토큰박스(서문5지구)",
        "address": "대구 중구 큰장로26길 5",
        "score": 9.877672,
        "win1": 2,
        "win2": 2,
        "last_win_date": "2026-04-04"
      }
    },
    {
      "type": "Feature",
      "geometry": {
        "type": "Point",
        "coordinates": [
          128.555199068014,
          35.8718986373835
        ]
      },
      "properties": {
        "store_id": "store-00186",
        "name": "세진전자통신",
        "address": "대구 서구 서대구로 156",
        "score": 15.854943,
        "win1": 3,
        "win2": 3,
        "last_win_date": "2026-06-13"
      }
    },
    {
      "type": "Feature",
      "geometry": {
        "type": "Point",
        "coordinates": [
          128.603794623645,
          35.9207021160842
        ]
      },
      "properties": {
        "store_id": "store-00187",
        "name": "돈벼락복권방",
        "address": "대구 북구 동변로 82-1 1층",
        "score": 5.233722,
        "win1": 1,
        "win2": 1,
        "last_win_date": "2026-04-04"
      }
    },
    {
      "type": "Feature",
      "geometry": {
        "type": "Point",
        "coordinates": [
          128.461135129458,
          35.6932468793254
        ]
      },
      "properties": {
        "store_id": "store-00188",
        "name": "로또명당(유가테크노점)",
        "address": "대구 달성군 테크노상업로 108 1동 1층 114호(테크노에이스)",
        "score": 10.066482,
        "win1": 2,
        "win2": 2,
        "last_win_date": "2026-04-04"
      }
    },
    {
      "type": "Feature",
      "geometry": {
        "type": "Point",
        "coordinates": [
          128.554778643349,
          35.8336179655221
        ]
      },
      "properties": {
        "store_id": "store-00189",
        "name": "복권명당(서부점)",
        "address": "대구 달서구 월배로 452",
        "score": 16.87586,
        "win1": 3,
        "win2": 3,
        "last_win_date": "2026-06-06"
      }
    },
    {
      "type": "Feature",
      "geometry": {
        "type": "Point",
        "coordinates": [
          128.531600758067,
          35.8492305104428
        ]
      },
      "properties": {
        "store_id": "store-00190",
        "name": "로또 명당(용산네거리점)",
        "address": "대구 달서구 달구벌대로 1504 1층 복권방",
        "score": 5.233722,
        "win1": 1,
        "win2": 1,
        "last_win_date": "2026-04-04"
      }
    },
    {
      "type": "Feature",
      "geometry": {
        "type": "Point",
        "coordinates": [
          128.53619207262,
          35.84220335202
        ]
      },
      "properties": {
        "store_id": "store-00191",
        "name": "일등복권편의점",
        "address": "대구 달서구 대명천로 220 1층",
        "score": 53.187034,
        "win1": 10,
        "win2": 10,
        "last_win_date": "2026-05-16"
      }
    },
    {
      "type": "Feature",
      "geometry": {
        "type": "Point",
        "coordinates": [
          126.554266722068,
          37.4989099268652
        ]
      },
      "properties": {
        "store_id": "store-00192",
        "name": "모든로또",
        "address": "인천 중구 운중로 206 104호",
        "score": 5.233722,
        "win1": 1,
        "win2": 1,
        "last_win_date": "2026-04-04"
      }
    },
    {
      "type": "Feature",
      "geometry": {
        "type": "Point",
        "coordinates": [
          126.630475598862,
          37.4745164913946
        ]
      },
      "properties": {
        "store_id": "store-00193",
        "name": "매표소",
        "address": "인천 중구 우현로 85-3",
        "score": 5.233722,
        "win1": 1,
        "win2": 1,
        "last_win_date": "2026-04-04"
      }
    },
    {
      "type": "Feature",
      "geometry": {
        "type": "Point",
        "coordinates": [
          126.491489796733,
          37.4934207705586
        ]
      },
      "properties": {
        "store_id": "store-00194",
        "name": "NBA(엔비에이)",
        "address": "인천 중구 신도시남로142번길 6 1동 1층 128호",
        "score": 5.233722,
        "win1": 1,
        "win2": 1,
        "last_win_date": "2026-04-04"
      }
    },
    {
      "type": "Feature",
      "geometry": {
        "type": "Point",
        "coordinates": [
          126.672387813513,
          37.5118647230749
        ]
      },
      "properties": {
        "store_id": "store-00195",
        "name": "행운복권",
        "address": "인천 서구 가정로 301-1",
        "score": 5.233722,
        "win1": 1,
        "win2": 1,
        "last_win_date": "2026-04-04"
      }
    },
    {
      "type": "Feature",
      "geometry": {
        "type": "Point",
        "coordinates": [
          126.724449450707,
          37.4909643587494
        ]
      },
      "properties": {
        "store_id": "store-00196",
        "name": "로또명당 이천쌀유통",
        "address": "인천 부평구 광장로 34 1층",
        "score": 5.233722,
        "win1": 1,
        "win2": 1,
        "last_win_date": "2026-04-04"
      }
    },
    {
      "type": "Feature",
      "geometry": {
        "type": "Point",
        "coordinates": [
          126.681163207516,
          37.4580182017435
        ]
      },
      "properties": {
        "store_id": "store-00197",
        "name": "골든벨 복권판매점",
        "address": "인천 미추홀구 경인로 372 1층 (아인병원 상가 1043호)",
        "score": 10.398378,
        "win1": 2,
        "win2": 2,
        "last_win_date": "2026-04-04"
      }
    },
    {
      "type": "Feature",
      "geometry": {
        "type": "Point",
        "coordinates": [
          126.735091118519,
          37.4615930687888
        ]
      },
      "properties": {
        "store_id": "store-00198",
        "name": "행운 마트",
        "address": "인천 남동구 만수로 65",
        "score": 5.233722,
        "win1": 1,
        "win2": 1,
        "last_win_date": "2026-04-04"
      }
    },
    {
      "type": "Feature",
      "geometry": {
        "type": "Point",
        "coordinates": [
          126.846814030517,
          35.2171987429965
        ]
      },
      "properties": {
        "store_id": "store-00199",
        "name": "재복명당 복권판매점",
        "address": "광주 광산구 임방울대로800번길 11-5 첨단LH3단지 112호",
        "score": 5.233722,
        "win1": 1,
        "win2": 1,
        "last_win_date": "2026-04-04"
      }
    },
    {
      "type": "Feature",
      "geometry": {
        "type": "Point",
        "coordinates": [
          129.122333131712,
          35.5648444685935
        ]
      },
      "properties": {
        "store_id": "store-00200",
        "name": "꿈드림 복권방",
        "address": "울산 울주군 남문길 21",
        "score": 5.233722,
        "win1": 1,
        "win2": 1,
        "last_win_date": "2026-04-04"
      }
    },
    {
      "type": "Feature",
      "geometry": {
        "type": "Point",
        "coordinates": [
          129.360304185923,
          35.557789757613
        ]
      },
      "properties": {
        "store_id": "store-00201",
        "name": "보경복권",
        "address": "울산 북구 명촌6길 7",
        "score": 5.233722,
        "win1": 1,
        "win2": 1,
        "last_win_date": "2026-04-04"
      }
    },
    {
      "type": "Feature",
      "geometry": {
        "type": "Point",
        "coordinates": [
          127.15953032139,
          37.8059848781015
        ]
      },
      "properties": {
        "store_id": "store-00202",
        "name": "복권맛집",
        "address": "경기 포천시 부흥로 409",
        "score": 5.233722,
        "win1": 1,
        "win2": 1,
        "last_win_date": "2026-04-04"
      }
    },
    {
      "type": "Feature",
      "geometry": {
        "type": "Point",
        "coordinates": [
          126.971888025898,
          37.3526583009906
        ]
      },
      "properties": {
        "store_id": "store-00203",
        "name": "천하명당복권방",
        "address": "경기 의왕시 경수대로 292 1층 111호 (오전동 대덕하이베라스)",
        "score": 9.81639,
        "win1": 2,
        "win2": 2,
        "last_win_date": "2026-04-04"
      }
    },
    {
      "type": "Feature",
      "geometry": {
        "type": "Point",
        "coordinates": [
          127.069638492806,
          37.1420376627923
        ]
      },
      "properties": {
        "store_id": "store-00204",
        "name": "복돼지",
        "address": "경기 오산시 원동로 6 113호",
        "score": 5.233722,
        "win1": 1,
        "win2": 1,
        "last_win_date": "2026-04-04"
      }
    },
    {
      "type": "Feature",
      "geometry": {
        "type": "Point",
        "coordinates": [
          126.998155852433,
          37.8068174310617
        ]
      },
      "properties": {
        "store_id": "store-00205",
        "name": "황금복권판매점",
        "address": "경기 양주시 부흥로 994",
        "score": 9.939775,
        "win1": 2,
        "win2": 2,
        "last_win_date": "2026-04-04"
      }
    },
    {
      "type": "Feature",
      "geometry": {
        "type": "Point",
        "coordinates": [
          126.977683645398,
          37.4008441877561
        ]
      },
      "properties": {
        "store_id": "store-00206",
        "name": "마이더스로또복권방",
        "address": "경기 안양시 동안구 안양판교로 12-2",
        "score": 11.132114,
        "win1": 2,
        "win2": 2,
        "last_win_date": "2026-06-06"
      }
    },
    {
      "type": "Feature",
      "geometry": {
        "type": "Point",
        "coordinates": [
          127.325773523738,
          37.0129524615376
        ]
      },
      "properties": {
        "store_id": "store-00207",
        "name": "세븐일레븐 홍익점",
        "address": "경기 안성시 종합운동장로 161",
        "score": 10.753067,
        "win1": 2,
        "win2": 2,
        "last_win_date": "2026-05-02"
      }
    },
    {
      "type": "Feature",
      "geometry": {
        "type": "Point",
        "coordinates": [
          126.818637959937,
          37.3510834942863
        ]
      },
      "properties": {
        "store_id": "store-00208",
        "name": "대박복권 안산휴게소점",
        "address": "경기 안산시 단원구 영동고속도로 15 1층 (푸드코트계산대 앞)",
        "score": 5.233722,
        "win1": 1,
        "win2": 1,
        "last_win_date": "2026-04-04"
      }
    },
    {
      "type": "Feature",
      "geometry": {
        "type": "Point",
        "coordinates": [
          126.736267243836,
          37.3453145955994
        ]
      },
      "properties": {
        "store_id": "store-00209",
        "name": "둘리복권방",
        "address": "경기 시흥시 중심상가2길 12-6 한강프라자제1층101호",
        "score": 5.233722,
        "win1": 1,
        "win2": 1,
        "last_win_date": "2026-04-04"
      }
    },
    {
      "type": "Feature",
      "geometry": {
        "type": "Point",
        "coordinates": [
          126.855573348211,
          37.3839075388746
        ]
      },
      "properties": {
        "store_id": "store-00210",
        "name": "행운노다지복권방",
        "address": "경기 시흥시 수도권제1순환고속도로 105 B07호",
        "score": 10.901672,
        "win1": 2,
        "win2": 2,
        "last_win_date": "2026-05-16"
      }
    },
    {
      "type": "Feature",
      "geometry": {
        "type": "Point",
        "coordinates": [
          126.735588934187,
          37.3457443131004
        ]
      },
      "properties": {
        "store_id": "store-00211",
        "name": "종합복권슈퍼",
        "address": "경기 시흥시 마유로 336 정일빌딩104",
        "score": 15.364189,
        "win1": 3,
        "win2": 3,
        "last_win_date": "2026-05-16"
      }
    },
    {
      "type": "Feature",
      "geometry": {
        "type": "Point",
        "coordinates": [
          127.022496102787,
          37.2750487114993
        ]
      },
      "properties": {
        "store_id": "store-00212",
        "name": "명당복권점",
        "address": "경기 수원시 팔달구 중부대로 50-1",
        "score": 5.233722,
        "win1": 1,
        "win2": 1,
        "last_win_date": "2026-04-04"
      }
    },
    {
      "type": "Feature",
      "geometry": {
        "type": "Point",
        "coordinates": [
          127.007650800798,
          37.263876517803
        ]
      },
      "properties": {
        "store_id": "store-00213",
        "name": "로또복권편의점",
        "address": "경기 수원시 권선구 세류로 51 1층",
        "score": 5.233722,
        "win1": 1,
        "win2": 1,
        "last_win_date": "2026-04-04"
      }
    },
    {
      "type": "Feature",
      "geometry": {
        "type": "Point",
        "coordinates": [
          127.168161022301,
          37.4614488628161
        ]
      },
      "properties": {
        "store_id": "store-00214",
        "name": "황금복권판매점",
        "address": "경기 성남시 중원구 산성대로582번길 2 1층일부 (은행동)",
        "score": 10.467444,
        "win1": 2,
        "win2": 2,
        "last_win_date": "2026-04-04"
      }
    },
    {
      "type": "Feature",
      "geometry": {
        "type": "Point",
        "coordinates": [
          127.167206035534,
          37.4464279124816
        ]
      },
      "properties": {
        "store_id": "store-00215",
        "name": "씨유 뉴성남신구대점",
        "address": "경기 성남시 중원구 광명로 372 1층(금광동)",
        "score": 5.233722,
        "win1": 1,
        "win2": 1,
        "last_win_date": "2026-04-04"
      }
    },
    {
      "type": "Feature",
      "geometry": {
        "type": "Point",
        "coordinates": [
          127.106812648944,
          37.4004659332759
        ]
      },
      "properties": {
        "store_id": "store-00216",
        "name": "로또복권방",
        "address": "경기 성남시 분당구 대왕판교로 660 1층 136호",
        "score": 5.233722,
        "win1": 1,
        "win2": 1,
        "last_win_date": "2026-04-04"
      }
    },
    {
      "type": "Feature",
      "geometry": {
        "type": "Point",
        "coordinates": [
          126.821653018977,
          37.5273681851657
        ]
      },
      "properties": {
        "store_id": "store-00217",
        "name": "다들복권방",
        "address": "경기 부천시 고리울로 51 고강빌딩1층",
        "score": 5.233722,
        "win1": 1,
        "win2": 1,
        "last_win_date": "2026-04-04"
      }
    },
    {
      "type": "Feature",
      "geometry": {
        "type": "Point",
        "coordinates": [
          127.202333978835,
          37.6993018811302
        ]
      },
      "properties": {
        "store_id": "store-00218",
        "name": "오남 로또택배",
        "address": "경기 남양주시 진건오남로 814 B동 1층 5호",
        "score": 5.233722,
        "win1": 1,
        "win2": 1,
        "last_win_date": "2026-04-04"
      }
    },
    {
      "type": "Feature",
      "geometry": {
        "type": "Point",
        "coordinates": [
          126.93237417283,
          37.3592540547346
        ]
      },
      "properties": {
        "store_id": "store-00219",
        "name": "산본역 로또명당",
        "address": "경기 군포시 산본로323번길 16-6 제1층 제1005호(산본동신명타워)",
        "score": 5.233722,
        "win1": 1,
        "win2": 1,
        "last_win_date": "2026-04-04"
      }
    },
    {
      "type": "Feature",
      "geometry": {
        "type": "Point",
        "coordinates": [
          126.881985959763,
          37.4588486235666
        ]
      },
      "properties": {
        "store_id": "store-00220",
        "name": "지바",
        "address": "경기 광명시 금당로 36 1층 118호",
        "score": 5.233722,
        "win1": 1,
        "win2": 1,
        "last_win_date": "2026-04-04"
      }
    },
    {
      "type": "Feature",
      "geometry": {
        "type": "Point",
        "coordinates": [
          126.842715230681,
          37.7253263390632
        ]
      },
      "properties": {
        "store_id": "store-00221",
        "name": "복권방",
        "address": "경기 고양시 덕양구 통일로 1267 106호",
        "score": 5.233722,
        "win1": 1,
        "win2": 1,
        "last_win_date": "2026-04-04"
      }
    },
    {
      "type": "Feature",
      "geometry": {
        "type": "Point",
        "coordinates": [
          127.49407831975,
          37.6758349679189
        ]
      },
      "properties": {
        "store_id": "store-00222",
        "name": "설악복권방",
        "address": "경기 가평군 신천중앙로 80 1층 복권방",
        "score": 16.272412,
        "win1": 3,
        "win2": 3,
        "last_win_date": "2026-05-02"
      }
    },
    {
      "type": "Feature",
      "geometry": {
        "type": "Point",
        "coordinates": [
          128.704350720148,
          37.6730640474473
        ]
      },
      "properties": {
        "store_id": "store-00223",
        "name": "대관령복권방",
        "address": "강원 평창군 대관령로 74-4 1층 B호",
        "score": 10.196601,
        "win1": 2,
        "win2": 2,
        "last_win_date": "2026-04-04"
      }
    },
    {
      "type": "Feature",
      "geometry": {
        "type": "Point",
        "coordinates": [
          127.728698692986,
          37.901869587369
        ]
      },
      "properties": {
        "store_id": "store-00224",
        "name": "우두로또",
        "address": "강원 춘천시 영서로 2784 예전 로또판매점 바로옆 건물 1층",
        "score": 5.233722,
        "win1": 1,
        "win2": 1,
        "last_win_date": "2026-04-04"
      }
    },
    {
      "type": "Feature",
      "geometry": {
        "type": "Point",
        "coordinates": [
          127.743285628379,
          37.8498936523547
        ]
      },
      "properties": {
        "store_id": "store-00225",
        "name": "이슬로 로또복권 판매점",
        "address": "강원 춘천시 지석로 74-11 1층",
        "score": 5.233722,
        "win1": 1,
        "win2": 1,
        "last_win_date": "2026-04-04"
      }
    },
    {
      "type": "Feature",
      "geometry": {
        "type": "Point",
        "coordinates": [
          128.82318965886,
          37.227001531725
        ]
      },
      "properties": {
        "store_id": "store-00226",
        "name": "사북로또",
        "address": "강원 정선군 사북중앙로 77 1층",
        "score": 5.233722,
        "win1": 1,
        "win2": 1,
        "last_win_date": "2026-04-04"
      }
    },
    {
      "type": "Feature",
      "geometry": {
        "type": "Point",
        "coordinates": [
          127.962073984534,
          37.3196374852919
        ]
      },
      "properties": {
        "store_id": "store-00227",
        "name": "대복로또",
        "address": "강원 원주시 나비허리길 120-19 1층",
        "score": 10.398378,
        "win1": 2,
        "win2": 2,
        "last_win_date": "2026-04-04"
      }
    },
    {
      "type": "Feature",
      "geometry": {
        "type": "Point",
        "coordinates": [
          128.588807531859,
          38.20545077541
        ]
      },
      "properties": {
        "store_id": "store-00228",
        "name": "훈민로또",
        "address": "강원 속초시 수복로 199-1 강원약초상회 복권판매점",
        "score": 10.753067,
        "win1": 2,
        "win2": 2,
        "last_win_date": "2026-05-02"
      }
    },
    {
      "type": "Feature",
      "geometry": {
        "type": "Point",
        "coordinates": [
          127.461179980375,
          36.6500286835266
        ]
      },
      "properties": {
        "store_id": "store-00229",
        "name": "별복권방",
        "address": "충북 청주시 흥덕구 덕암로114번길 28 1층",
        "score": 9.63735,
        "win1": 2,
        "win2": 2,
        "last_win_date": "2026-04-04"
      }
    },
    {
      "type": "Feature",
      "geometry": {
        "type": "Point",
        "coordinates": [
          127.474790076572,
          36.6134491065108
        ]
      },
      "properties": {
        "store_id": "store-00230",
        "name": "그린24시편의점",
        "address": "충북 청주시 서원구 수곡로 12",
        "score": 5.233722,
        "win1": 1,
        "win2": 1,
        "last_win_date": "2026-04-04"
      }
    },
    {
      "type": "Feature",
      "geometry": {
        "type": "Point",
        "coordinates": [
          127.459743179737,
          36.6369383227267
        ]
      },
      "properties": {
        "store_id": "store-00231",
        "name": "이마트24사창대로점",
        "address": "충북 청주시 서원구 1순환로 635",
        "score": 5.233722,
        "win1": 1,
        "win2": 1,
        "last_win_date": "2026-04-04"
      }
    },
    {
      "type": "Feature",
      "geometry": {
        "type": "Point",
        "coordinates": [
          127.445152487637,
          36.8565344377177
        ]
      },
      "properties": {
        "store_id": "store-00232",
        "name": "일등대박복권방",
        "address": "충북 진천군 중앙동로 74-1 1층",
        "score": 5.233722,
        "win1": 1,
        "win2": 1,
        "last_win_date": "2026-04-04"
      }
    },
    {
      "type": "Feature",
      "geometry": {
        "type": "Point",
        "coordinates": [
          127.586378932803,
          36.9909767213693
        ]
      },
      "properties": {
        "store_id": "store-00233",
        "name": "로또명당금왕점",
        "address": "충북 음성군 탑골길 55 세븐일레븐 금왕점",
        "score": 15.532929,
        "win1": 3,
        "win2": 3,
        "last_win_date": "2026-05-09"
      }
    },
    {
      "type": "Feature",
      "geometry": {
        "type": "Point",
        "coordinates": [
          126.346779936068,
          36.5163122996833
        ]
      },
      "properties": {
        "store_id": "store-00234",
        "name": "안면슈퍼",
        "address": "충남 태안군 장터로 90 1층 좌측2호",
        "score": 5.233722,
        "win1": 1,
        "win2": 1,
        "last_win_date": "2026-04-04"
      }
    },
    {
      "type": "Feature",
      "geometry": {
        "type": "Point",
        "coordinates": [
          126.86686793761,
          36.7463330298774
        ]
      },
      "properties": {
        "store_id": "store-00235",
        "name": "아산도고명당점",
        "address": "충남 아산시 온천대로 104 1층 103호",
        "score": 5.233722,
        "win1": 1,
        "win2": 1,
        "last_win_date": "2026-04-04"
      }
    },
    {
      "type": "Feature",
      "geometry": {
        "type": "Point",
        "coordinates": [
          127.052313793386,
          36.7747196028564
        ]
      },
      "properties": {
        "store_id": "store-00236",
        "name": "복권명당",
        "address": "충남 아산시 모산로91번길 9-2 1층",
        "score": 5.233722,
        "win1": 1,
        "win2": 1,
        "last_win_date": "2026-04-04"
      }
    },
    {
      "type": "Feature",
      "geometry": {
        "type": "Point",
        "coordinates": [
          126.68868846985,
          36.0748778973301
        ]
      },
      "properties": {
        "store_id": "store-00237",
        "name": "777천하명당",
        "address": "충남 서천군 충절로 54",
        "score": 5.233722,
        "win1": 1,
        "win2": 1,
        "last_win_date": "2026-04-04"
      }
    },
    {
      "type": "Feature",
      "geometry": {
        "type": "Point",
        "coordinates": [
          127.076527322932,
          35.8706100383473
        ]
      },